City_ID,City,Lat,Lng,Max Temp,Humidity,Cloudiness,Wind Speed,Country,Date
0,fremont,37.5483,-121.9886,33.15,56,0,6.17,US,1694560911
1,vila velha,-20.3297,-40.2925,22.97,89,20,4.12,BR,1694561688
2,sola,-13.8833,167.55,25.09,82,79,8.2,VU,1694561688
3,belmonte,-15.8631,-38.8828,22.78,84,9,2.34,BR,1694561689
4,stanley,54.868,-1.6985,9.32,92,20,2.57,GB,1694561689
5,san patricio,28.017,-97.5169,35.3,55,21,7.12,US,1694561690
6,thompson,55.7435,-97.8558,18.09,45,20,4.63,CA,1694561690
7,grytviken,-54.2811,-36.5092,-8.44,80,80,5.46,GS,1694561691
8,geraldton,-28.7667,114.6,17.23,88,40,6.69,AU,1694561691
9,hadibu,12.65,54.0333,26.23,81,27,7.51,YE,1694561692
10,ghat,24.9647,10.1728,26.77,24,0,1.56,LY,1694561692
11,atafu village,-8.5421,-172.5159,28.69,71,10,5.67,TK,1694561693
12,port-aux-francais,-49.35,70.2167,1.76,75,47,14.21,TF,1694561693
13,west island,-12.1568,96.8225,24.99,83,40,5.14,CC,1694561693
14,longyearbyen,78.2186,15.6401,0.91,86,100,0.0,SJ,1694561695
15,utrik,11.2278,169.8474,28.37,77,100,6.43,MH,1694561696
16,vardenis,40.1827,45.7311,7.71,93,100,1.88,AM,1694561696
17,papatowai,-46.5619,169.4708,8.71,74,91,8.59,NZ,1694561697
18,puerto ayora,-0.7393,-90.3518,24.19,89,69,2.24,EC,1694561697
19,fort st. john,56.2499,-120.8529,19.94,45,75,7.2,CA,1694561697
20,brookings,44.3114,-96.7984,20.1,50,0,3.09,US,1694561492
21,waitangi,-43.9535,-176.5597,12.12,66,1,4.92,NZ,1694561698
22,edinburgh of the seven seas,-37.0676,-12.3116,11.84,69,39,11.15,SH,1694561699
23,olonkinbyen,70.9221,-8.7187,3.36,64,98,3.08,SJ,1694561699
24,amga,60.8953,131.9608,4.89,76,100,2.34,RU,1694561700
25,invercargill,-46.4,168.35,8.34,86,92,7.15,NZ,1694561498
26,kodiak,57.79,-152.4072,10.73,76,20,4.63,US,1694561701
27,constantia,44.1833,28.65,15.39,66,0,3.5,RO,1694561701
28,adamstown,-25.066,-130.1015,18.23,62,92,10.81,PN,1694561702
29,maryborough,-25.5333,152.7,22.51,44,71,2.88,AU,1694561702
30,el gouna,27.3942,33.6782,30.05,50,19,5.45,EG,1694561703
31,colonia,50.9333,6.95,19.42,89,40,3.09,DE,1694561433
32,egilsstadir,65.2653,-14.3948,1.95,69,0,3.09,IS,1694561704
33,nieuw amsterdam,5.8833,-55.0833,30.09,75,20,1.03,SR,1694561705
34,katsuura,35.1333,140.3,26.76,76,17,3.37,JP,1694561705
35,blackmans bay,-43.0167,147.3167,13.62,71,100,2.24,AU,1694561706
36,newman,37.3138,-121.0208,34.19,15,0,2.3,US,1694561706
37,kanina khas,28.3333,76.3167,27.62,74,14,2.19,IN,1694561707
38,zeerust,-25.5369,26.0751,10.39,76,51,5.6,ZA,1694561708
39,coahuayana de hidalgo,18.7,-103.6583,29.52,79,34,2.14,MX,1694561708
40,guanajuato,21.0186,-101.2591,28.44,26,0,7.43,MX,1694561643
41,rongelap,11.1635,166.8941,28.54,77,94,7.06,MH,1694561709
42,butembo,0.15,29.2833,14.36,87,75,1.28,CD,1694561710
43,klyuchi,52.2667,79.1667,12.54,79,100,2.85,RU,1694561710
44,tezu,27.9167,96.1667,25.15,85,83,1.25,IN,1694561711
45,flin flon,54.7682,-101.865,18.91,48,20,4.12,CA,1694561711
46,murun-kuren,49.6342,100.1625,11.91,73,100,0.97,MN,1694561712
47,kawambwa,-9.7915,29.0791,21.87,58,46,0.78,ZM,1694561712
48,courtenay,49.6866,-124.9936,16.11,77,100,2.57,CA,1694561713
49,arraial do cabo,-22.9661,-42.0278,21.42,77,0,6.34,BR,1694561453
50,albany,42.6001,-73.9662,22.04,84,36,1.45,US,1694561714
51,bethel,41.3712,-73.414,24.16,83,0,1.54,US,1694561658
52,kurumkan,54.3,110.3,9.16,63,70,1.57,RU,1694561715
53,tucuma,-0.1833,-50.05,26.32,76,19,4.06,BR,1694561715
54,alva,56.1528,-3.8051,12.74,91,100,0.89,GB,1694561715
55,tiksi,71.6872,128.8694,5.76,84,100,6.11,RU,1694561716
56,bani,18.2833,-70.3333,29.36,93,79,0.96,DO,1694561716
57,lebu,-37.6167,-73.65,9.23,85,7,0.75,CL,1694561717
58,tonota,-21.4833,27.4833,11.42,77,95,9.32,BW,1694561717
59,ierapetra,35.01,25.7353,23.97,59,1,6.71,GR,1694561718
60,port blair,11.6667,92.75,25.02,94,75,6.17,IN,1694561718
61,jamestown,42.097,-79.2353,17.79,97,100,1.79,US,1694561703
62,chibougamau,49.9168,-74.3659,14.79,77,100,2.57,CA,1694561720
63,happy valley-goose bay,53.3168,-60.3315,14.17,72,100,1.54,CA,1694561721
64,kill devil hills,36.0307,-75.676,27.21,74,0,3.09,US,1694561510
65,ilulissat,69.2167,-51.1,4.01,81,75,2.06,GL,1694561722
66,callao,-12.0667,-77.15,19.29,72,100,4.63,PE,1694561723
67,puerto natales,-51.7236,-72.4875,3.36,80,100,0.69,CL,1694561596
68,iqaluit,63.7506,-68.5145,7.85,76,100,2.57,CA,1694561724
69,carnarvon,-24.8667,113.6333,20.47,76,7,8.45,AU,1694561724
70,bredasdorp,-34.5322,20.0403,5.82,88,42,1.45,ZA,1694561724
71,syktyvkar,61.6764,50.8099,4.85,100,100,1.0,RU,1694561725
72,anjozorobe,-18.4,47.8667,11.04,96,16,0.74,MG,1694561725
73,wailua homesteads,22.0669,-159.378,28.44,66,20,6.17,US,1694561726
74,laguna,38.421,-121.4238,35.3,33,0,1.54,US,1694561727
75,aasiaat,68.7098,-52.8699,0.12,98,94,5.62,GL,1694561727
76,ushuaia,-54.8,-68.3,4.81,65,0,1.54,AR,1694561728
77,quellon,-43.1167,-73.6167,9.14,81,100,1.54,CL,1694561596
78,whitehorse,60.7161,-135.0538,13.9,57,75,5.66,CA,1694561728
79,tatarsk,55.219,75.9828,8.86,80,72,5.65,RU,1694561729
80,college,64.8569,-147.8028,13.45,71,75,3.09,US,1694561729
81,mount pearl,47.5166,-52.7813,14.52,92,75,6.69,CA,1694561730
82,livingston,55.9029,-3.5226,11.93,91,75,0.51,GB,1694561598
83,wenchang,30.904,118.4887,21.84,99,100,4.03,CN,1694561731
84,yellowknife,62.456,-114.3525,18.56,67,40,2.57,CA,1694561731
85,tura,25.5198,90.2201,23.61,98,100,2.66,IN,1694561732
86,bam,29.106,58.357,30.88,10,0,3.38,IR,1694561732
87,margaret river,-33.95,115.0667,15.73,91,100,12.94,AU,1694561733
88,mata-utu,-13.2816,-176.1745,27.46,79,41,7.76,WF,1694561479
89,lorengau,-2.0226,147.2712,27.78,79,58,3.71,PG,1694561734
90,tofol,5.3248,163.0078,30.88,70,75,4.12,FM,1694561734
91,dunedin,-45.8742,170.5036,13.22,40,8,2.24,NZ,1694561735
92,avarua,-21.2078,-159.775,24.03,60,75,9.26,CK,1694561463
93,puerto ayacucho,5.6639,-67.6236,27.76,75,99,1.31,VE,1694561735
94,lijiang,26.8688,100.2207,13.77,97,100,0.74,CN,1694561736
95,changuinola,9.4333,-82.5167,26.64,78,100,0.89,PA,1694561736
96,garissa,-0.4536,39.6401,24.67,79,14,6.92,KE,1694561737
97,bar,49.0772,27.6826,15.33,44,2,3.79,UA,1694561737
98,isafjordur,66.0755,-23.124,8.41,66,100,2.53,IS,1694561738
99,ancud,-41.8697,-73.8203,9.78,79,78,5.38,CL,1694561738
100,horta,38.5333,-28.6333,22.79,92,86,1.34,PT,1694561739
101,mermoz boabab,14.7065,-17.4758,26.31,75,71,3.33,SN,1694561739
102,cururupu,-1.8283,-44.8683,25.12,80,1,2.69,BR,1694561740
103,vilyuchinsk,52.9306,158.4028,11.15,89,100,1.05,RU,1694561740
104,hawaiian paradise park,19.5933,-154.9731,28.91,71,20,3.6,US,1694561741
105,tsiombe,-25.3,45.4833,20.22,95,20,3.65,MG,1694561741
106,brumado,-14.2036,-41.6653,22.95,70,15,4.1,BR,1694561741
107,talnakh,69.4865,88.3972,3.45,89,63,2.16,RU,1694561742
108,mitu,1.1983,-70.1733,23.25,97,92,0.67,CO,1694561742
109,hegang,47.4,130.3667,15.09,63,4,3.56,CN,1694561743
110,peterhead,57.5058,-1.7981,7.22,62,6,4.13,GB,1694561743
111,burg auf fehmarn,54.4333,11.2,17.76,91,75,6.98,DE,1694561744
112,malango,-2.9627,119.9001,23.4,82,87,1.31,ID,1694561745
113,nantucket,41.2835,-70.0995,24.03,99,100,2.57,US,1694561484
114,portovelo,-3.7167,-79.6167,33.23,88,75,0.79,EC,1694561745
115,kidal,18.4411,1.4078,35.85,15,34,7.36,ML,1694561746
116,san juan bautista,-14.0108,-75.7358,21.24,51,21,3.66,PE,1694561746
117,pisco,-13.7,-76.2167,20.01,77,12,9.26,PE,1694561747
118,hermanus,-34.4187,19.2345,9.05,78,27,4.62,ZA,1694561585
119,east london,-33.0153,27.9116,13.52,66,92,6.43,ZA,1694561748
120,georgetown,5.4112,100.3354,26.96,81,20,5.14,MY,1694561574
121,bel ombre,-4.6167,55.4167,26.91,83,40,6.17,SC,1694561749
122,lata,40.1629,-8.3327,18.37,96,2,0.87,PT,1694561749
123,dossor,47.5272,52.9811,17.5,59,77,2.06,KZ,1694561750
124,iskateley,67.6803,53.1512,11.52,84,62,7.25,RU,1694561751
125,badger,64.8,-147.5333,13.41,68,75,3.09,US,1694561751
126,vernon,50.2581,-119.2691,25.97,44,100,1.03,CA,1694561752
127,las heras,-46.5419,-68.9359,7.07,40,97,4.92,AR,1694561495
128,mandalgovi,45.7625,106.2708,14.98,37,77,1.8,MN,1694561753
129,sechura,-5.5569,-80.8222,20.5,82,19,7.86,PE,1694561753
130,kailua-kona,19.6406,-155.9956,29.98,77,40,5.14,US,1694561753
131,enewetak,11.3474,162.3373,28.87,78,99,6.73,MH,1694561754
132,vorgashor,67.5833,63.95,8.44,90,42,6.7,RU,1694561754
133,kapoeta,4.7717,33.5903,21.71,80,9,1.12,SS,1694561755
134,pudozh,61.8099,36.5345,12.48,84,59,3.37,RU,1694561755
135,nemuro,43.3236,145.575,19.5,94,100,4.27,JP,1694561756
136,nar'yan-mar,67.6713,53.087,11.65,84,61,7.42,RU,1694561756
137,narvik,68.4384,17.4272,9.1,96,100,3.62,NO,1694561757
138,chonchi,-42.6128,-73.8092,8.95,95,99,1.49,CL,1694561611
139,sutherlin,43.3901,-123.3126,29.48,30,0,3.09,US,1694561723
140,alenquer,-1.9417,-54.7383,28.69,45,60,1.97,BR,1694561758
141,puerto deseado,-47.7503,-65.8938,5.32,67,4,1.46,AR,1694561758
142,bilibino,68.0546,166.4372,6.36,71,100,1.1,RU,1694561759
143,ribeira grande,38.5167,-28.7,23.21,92,100,1.34,PT,1694561759
144,kudahuvadhoo,2.6708,72.8944,27.81,78,43,2.97,MV,1694561760
145,port augusta,-32.5,137.7667,22.7,26,6,3.73,AU,1694561760
146,hasaki,35.7333,140.8333,27.38,74,20,3.08,JP,1694561760
147,anadyr,64.75,177.4833,9.28,57,0,6.0,RU,1694561761
148,katol,21.2667,78.5833,22.48,91,89,3.74,IN,1694561761
149,ponta delgada,37.7333,-25.6667,21.4,83,20,1.54,PT,1694561762
150,tsetserleg,47.475,101.4542,10.89,53,100,1.19,MN,1694561762
151,petropavlovsk-kamchatsky,53.0452,158.6483,10.33,100,75,3.0,RU,1694561763
152,kenai,60.5544,-151.2583,13.05,65,100,2.57,US,1694561763
153,naze,28.3667,129.4833,27.51,82,84,4.53,JP,1694561764
154,teshi old town,5.5836,-0.1072,22.31,100,100,3.09,GH,1694561764
155,ixtapa,20.7,-105.2,31.24,79,75,5.14,MX,1694561765
156,westport,41.1415,-73.3579,24.86,80,0,2.06,US,1694561765
157,masterton,-40.9597,175.6575,13.82,50,11,0.57,NZ,1694561766
158,port-vila,-17.7338,168.3219,24.78,78,100,6.17,VU,1694561766
159,qaqortoq,60.7167,-46.0333,4.03,74,21,2.41,GL,1694561767
160,northam,51.0333,-4.2167,17.94,90,90,4.18,GB,1694561767
161,mount gambier,-37.8333,140.7667,19.02,51,99,2.7,AU,1694561768
162,markovo,57.3206,107.0881,8.67,73,100,1.41,RU,1694561769
163,la passe,45.5549,-0.8967,19.43,83,99,4.06,FR,1694561769
164,atasu,48.6814,71.6433,9.47,87,100,4.75,KZ,1694561770
165,kiruna,67.8557,20.2251,4.51,93,75,1.54,SE,1694561770
166,alice springs,-23.7,133.8833,15.75,21,2,0.0,AU,1694561771
167,luderitz,-26.6481,15.1594,16.23,43,0,3.34,NA,1694561771
168,tortoreto lido,42.8038,13.9429,23.95,76,8,2.38,IT,1694561771
169,kolonia town,6.964,158.206,31.06,74,100,2.06,FM,1694561772
170,okakarara,-20.5833,17.4333,11.44,18,0,2.86,NA,1694561772
171,ad dabbah,18.05,30.95,30.76,42,98,9.38,SD,1694561773
172,port macquarie,-31.4333,152.9167,20.5,53,7,2.14,AU,1694561773
173,bikenibeu village,1.3673,173.1241,30.98,70,75,3.09,KI,1694561774
174,arteche,12.2645,125.4048,27.04,82,91,1.99,PH,1694561774
175,timra,62.487,17.3257,9.82,93,0,4.63,SE,1694561774
176,lexington,37.9887,-84.4777,22.62,76,90,2.22,US,1694561536
177,vadso,70.0744,29.7487,8.49,81,75,2.06,NO,1694561776
178,tahe,52.3333,124.7333,9.94,50,25,1.66,CN,1694561776
179,auki,-8.7676,160.7034,28.28,72,100,2.8,SB,1694561777
180,keflavik,64.0049,-22.5624,9.24,71,75,5.14,IS,1694561777
181,senador guiomard,-10.1522,-67.7392,27.86,54,70,1.2,BR,1694561777
182,oranjemund,-28.55,16.4333,14.93,43,0,1.29,NA,1694561778
183,ribas do rio pardo,-20.4431,-53.7592,28.28,35,78,0.28,BR,1694561778
184,villa gesell,-37.2639,-56.973,8.92,66,99,4.26,AR,1694561779
185,villazon,-22.0866,-65.5942,11.38,5,0,7.71,BO,1694561779
186,vershino-darasunskiy,52.35,115.5167,5.59,56,66,1.61,RU,1694561780
187,juneau,58.3019,-134.4197,13.0,95,100,1.54,US,1694561780
188,slavonski brod,45.1603,18.0156,20.21,59,61,1.73,HR,1694561781
189,touba,8.2833,-7.6833,21.78,97,51,1.37,CI,1694561781
190,cartagena del chaira,1.3349,-74.8429,26.59,69,55,0.18,CO,1694561781
191,pacora,9.0833,-79.2833,27.99,94,75,2.06,PA,1694561782
192,louga,58.7372,29.8453,13.97,76,58,2.73,RU,1694561782
193,kerikeri,-35.2268,173.9474,18.28,70,10,2.24,NZ,1694561783
194,gurupi,-11.7292,-49.0686,31.08,27,6,2.54,BR,1694561783
195,comodoro rivadavia,-45.8667,-67.5,7.92,29,0,3.09,AR,1694561784
196,alexandria,31.2156,29.9553,25.3,72,0,6.18,EG,1694561637
197,atar,20.5169,-13.0499,33.96,28,56,3.37,MR,1694561713
198,libreville,0.3925,9.4537,25.01,88,75,3.6,GA,1694561785
199,ruteng,-8.6136,120.4721,20.23,61,12,0.6,ID,1694561786
200,safety harbor,27.9909,-82.6932,32.02,69,0,3.09,US,1694561786
201,tanakpur,29.0833,80.1167,25.69,80,66,1.74,IN,1694561787
202,tolanaro,-25.0319,46.9987,20.04,88,40,3.09,MG,1694561787
203,kavaratti,10.5669,72.642,27.08,82,100,5.58,IN,1694561788
204,kushiro,42.975,144.3747,22.53,100,75,0.0,JP,1694561788
205,korla,41.7597,86.1469,22.99,31,60,4.96,CN,1694561788
206,buka,40.8108,69.1986,14.3,41,0,0.31,UZ,1694561789
207,tabou,4.423,-7.3528,23.97,94,53,1.96,CI,1694561789
208,alofi,-19.0595,-169.9187,25.94,73,75,7.2,NU,1694561790
209,kone,-21.0595,164.8658,24.44,55,24,2.32,NC,1694561791
210,port lincoln,-34.7333,135.8667,20.63,37,55,5.28,AU,1694561792
211,st. john's,47.5649,-52.7093,14.98,92,75,6.69,CA,1694561640
212,rio gallegos,-51.6226,-69.2181,6.03,61,0,3.09,AR,1694561793
213,tazovsky,67.4667,78.7,5.35,81,97,4.77,RU,1694561793
214,uturoa,-16.7333,-151.4333,24.71,80,93,9.03,PF,1694561794
215,pandan,14.0453,124.1694,27.77,81,52,1.79,PH,1694561794
216,sitka,57.0531,-135.33,12.94,88,100,3.6,US,1694561597
217,unai,-16.3575,-46.9061,27.44,29,20,1.48,BR,1694561624
218,callaway,30.153,-85.5699,26.65,82,0,3.6,US,1694561796
219,san pedro pochutla,15.7333,-96.4667,31.84,76,53,1.69,MX,1694561796
220,cataingan,12.003,123.992,28.19,76,78,2.06,PH,1694561797
221,lakatoro,-16.0999,167.4164,25.88,73,90,5.07,VU,1694561797
222,konarka,19.9,86.1167,26.22,91,100,2.43,IN,1694561798
223,malvan,16.0667,73.4667,27.31,78,98,4.37,IN,1694561798
224,punta arenas,-53.15,-70.9167,6.06,65,100,2.57,CL,1694561605
225,minot air force base,48.4209,-101.3391,21.1,55,0,6.17,US,1694561705
226,kingscliff,-28.2667,153.5667,21.64,56,4,4.12,AU,1694561799
227,talcahuano,-36.7167,-73.1167,11.82,76,0,4.63,CL,1694561716
228,aroma,15.8167,36.1333,26.76,68,90,5.24,SD,1694561800
229,thinadhoo,0.5333,72.9333,28.07,78,100,5.2,MV,1694561800
230,broken hill,-31.95,141.4333,21.5,25,1,2.05,AU,1694561801
231,sabang,5.8933,95.3214,28.01,78,100,4.0,ID,1694561801
232,al bawiti,28.3492,28.8659,24.18,70,25,3.6,EG,1694561803
233,lib,8.3122,167.3766,29.03,77,88,6.8,MH,1694561803
234,gadzhiyevo,69.2551,33.3362,9.07,88,100,7.22,RU,1694561803
235,siocon,7.7061,122.1353,27.07,84,100,2.84,PH,1694561804
236,port elizabeth,-33.918,25.5701,14.16,67,0,6.69,ZA,1694561804
237,udachny,66.4167,112.4,6.36,93,100,9.47,RU,1694561805
238,port mathurin,-19.6833,63.4167,22.8,66,99,7.32,MU,1694561805
239,emerald,-23.5333,148.1667,21.6,43,0,4.56,AU,1694561738
240,bamboo flat,11.7,92.7167,25.05,94,75,6.17,IN,1694561806
241,yangquan,37.8575,113.5633,18.05,78,1,0.81,CN,1694561807
242,hithadhoo,-0.6,73.0833,27.83,80,84,5.57,MV,1694561807
243,sinabang,2.4803,96.3801,26.35,84,97,2.13,ID,1694561808
244,hutchinson,38.0608,-97.9298,24.3,43,0,1.54,US,1694561514
245,vilsbiburg,48.45,12.35,20.18,72,94,2.89,DE,1694561809
246,yanbu,24.0891,38.0637,32.02,66,0,2.06,SA,1694561809
247,ust-nera,64.5667,143.2,4.93,54,2,2.47,RU,1694561810
248,oberstdorf,47.4,10.2833,18.02,92,99,0.45,DE,1694561810
249,macapa,0.0389,-51.0664,28.99,61,0,5.66,BR,1694561811
250,zhangjiakou shi xuanhua qu,40.6103,115.0447,17.27,60,7,1.15,CN,1694561812
251,pariaman,-0.619,100.12,24.03,86,34,2.56,ID,1694561812
252,kachug,53.9606,105.8817,6.69,68,94,0.37,RU,1694561813
253,portage,41.1667,-81.1998,18.91,84,75,0.0,US,1694561557
254,parabel',58.6978,81.4825,6.0,89,48,2.84,RU,1694561814
255,shingu,33.7333,135.9833,27.44,73,35,2.06,JP,1694561673
256,sandnessjoen,66.0217,12.6316,9.29,78,56,3.57,NO,1694561815
257,princeville,45.7668,-61.2985,20.42,96,100,1.03,CA,1694561815
258,batangafo,7.3008,18.2833,21.79,96,91,0.72,CF,1694561816
259,floro,61.5996,5.0328,8.98,87,40,3.09,NO,1694561816
260,queenstown,-31.8976,26.8753,3.49,86,24,1.08,ZA,1694561817
261,bourg-saint-maurice,45.6172,6.769,18.14,83,93,1.09,FR,1694561817
262,rajaori,33.3833,74.3,22.85,70,0,2.09,IN,1694561818
263,jayapura,-2.5333,140.7,27.66,72,72,2.14,ID,1694561818
264,selfoss,63.9331,-20.9971,5.02,87,100,1.93,IS,1694561819
265,holualoa,19.6228,-155.9522,27.91,77,40,5.14,US,1694561820
266,isla mujeres,21.2311,-86.731,31.03,82,10,4.15,MX,1694561820
267,margate,51.3813,1.3862,17.95,93,46,2.68,GB,1694561590
268,ola,59.5833,151.2833,7.86,96,100,2.56,RU,1694561821
269,malyn,50.7723,29.2383,13.9,48,0,3.09,UA,1694561821
270,nadym,65.5333,72.5167,9.77,59,99,3.44,RU,1694561822
271,banda aceh,5.5577,95.3222,26.68,83,100,2.73,ID,1694561823
272,pangody,65.85,74.4859,6.35,72,86,3.98,RU,1694561823
273,california,38.3004,-76.5074,27.7,79,0,2.57,US,1694561685
274,tomatlan,19.9333,-105.25,29.09,87,19,2.69,MX,1694561824
275,sidi bennour,32.6524,-8.4277,19.95,80,0,5.55,MA,1694561824
276,quzhou,28.9594,118.8686,24.49,94,98,0.08,CN,1694561533
277,puerto aysen,-45.4,-72.7,3.31,98,58,2.82,CL,1694561825
278,chauk,20.8833,94.8167,25.2,89,100,5.58,MM,1694561826
279,dromore,54.5167,-7.4667,6.54,93,23,0.6,GB,1694561826
280,babolsar,36.7025,52.6576,22.95,59,0,3.83,IR,1694561827
281,isla vista,34.4133,-119.861,28.88,61,0,2.57,US,1694561827
282,xilin hot,43.9667,116.0333,14.32,26,57,4.72,CN,1694561827
283,codrington,-38.2667,141.9667,17.34,59,100,2.91,AU,1694561828
284,katsuren-haebaru,26.3369,127.8719,29.01,88,47,4.25,JP,1694561829
285,sabha,27.0377,14.4283,23.16,30,0,4.56,LY,1694561829
286,topi,34.0704,72.6236,27.38,60,0,2.65,PK,1694561830
287,cradock,-32.1642,25.6192,5.44,50,32,0.47,ZA,1694561830
288,arkhangel'sk,64.5401,40.5433,12.37,82,35,4.24,RU,1694561831
289,kamaishi,39.2667,141.8833,28.41,74,84,1.16,JP,1694561831
290,arak,34.0917,49.6892,20.09,24,0,2.54,IR,1694561832
291,afaahiti,-17.75,-149.2833,25.93,80,68,11.26,PF,1694561832
292,battagram,34.6772,73.0233,21.85,70,0,2.54,PK,1694561832
293,plastun,44.7561,136.2939,17.21,56,78,2.58,RU,1694561833
294,big bend,-26.8167,31.9333,16.05,63,100,2.06,SZ,1694561833
295,kununurra,-15.7667,128.7333,24.99,27,86,1.54,AU,1694561834
296,saruhanli,38.7346,27.5681,16.28,69,0,1.23,TR,1694561834
297,khorixas,-20.3667,14.9667,20.15,18,0,3.2,NA,1694561835
298,kirakira,-10.4544,161.9205,28.37,74,96,5.07,SB,1694561835
299,ghadamis,30.1337,9.5007,27.73,21,0,3.65,LY,1694561835
300,hilo,19.7297,-155.09,33.49,72,20,3.6,US,1694561836
301,fale old settlement,-9.3852,-171.2468,28.51,74,25,5.48,TK,1694561836
302,robertsport,6.7533,-11.3686,25.29,88,37,3.21,LR,1694561837
303,arys,42.4252,68.795,14.82,44,2,2.84,KZ,1694561837
304,skiathos,39.1623,23.4909,22.21,62,0,0.98,GR,1694561666
305,campo formoso,-10.5075,-40.3214,20.88,83,2,6.07,BR,1694561838
306,sanming,26.2486,117.6186,26.13,84,86,0.35,CN,1694561838
307,manadhoo,5.7667,73.3833,27.87,76,100,4.42,MV,1694561839
308,roswell,34.0232,-84.3616,26.51,87,0,1.54,US,1694561839
309,agdam,39.991,46.9274,15.56,92,100,0.85,AZ,1694561840
310,papao,-17.75,-149.55,26.82,79,65,11.51,PF,1694561841
311,kota bharu,6.1333,102.2386,24.99,94,40,2.68,MY,1694561825
312,portland,45.5234,-122.6762,27.54,48,75,3.6,US,1694561519
313,sinop,41.7711,34.8709,10.69,77,0,1.7,TR,1694561842
314,praia da vitoria,38.7333,-27.0667,23.2,88,20,4.26,PT,1694561842
315,paracin,43.8608,21.4078,18.96,43,5,1.75,RS,1694561843
316,kapa'a,22.0752,-159.319,29.18,66,20,6.17,US,1694561845
317,anisoc,1.8658,10.7689,21.38,100,99,0.77,GQ,1694561845
318,bontang,0.1333,117.5,24.83,82,99,2.12,ID,1694561845
319,madagali,10.8902,13.6312,24.61,69,38,0.83,NG,1694561846
320,saint-philippe,-21.3585,55.7679,22.77,88,96,2.43,RE,1694561846
321,zaozersk,69.4005,32.4476,8.22,91,100,5.34,RU,1694561847
322,ati,13.2154,18.3353,26.04,76,97,2.98,TD,1694561847
323,new kingman-butler,35.265,-114.0323,32.68,25,20,3.09,US,1694561848
324,san antonio de pale,-1.4014,5.6325,23.65,82,100,6.0,GQ,1694561848
325,klamath falls,42.2249,-121.7817,25.48,38,0,4.12,US,1694561618
326,dudinka,69.4058,86.1778,3.68,82,94,4.43,RU,1694561849
327,hamilton,39.1834,-84.5333,22.25,87,40,1.54,US,1694561430
328,lompoc,34.6391,-120.4579,25.01,69,2,3.58,US,1694561850
329,niafunke,15.9322,-3.9906,36.73,24,35,2.58,ML,1694561851
330,susuman,62.7833,148.1667,6.38,62,98,4.2,RU,1694561851
331,ormara,25.2088,64.6357,26.5,79,76,6.93,PK,1694561852
332,bairnsdale,-37.8333,147.6167,17.25,67,32,0.93,AU,1694561649
333,lagoa,39.05,-27.9833,21.96,88,100,7.29,PT,1694561853
334,palmer,42.1584,-72.3287,23.75,75,40,0.0,US,1694561853
335,igarka,67.4667,86.5833,3.5,80,71,2.83,RU,1694561854
336,xai-xai,-25.0519,33.6442,19.15,67,100,7.46,MZ,1694561855
337,guerrero negro,27.9769,-114.0611,23.27,80,0,6.46,MX,1694561855
338,minas de marcona,-15.2119,-75.1103,13.08,78,4,3.4,PE,1694561855
339,ilha de mocambique,-15.0342,40.7358,24.38,80,30,0.54,MZ,1694561856
340,nuku'alofa,-21.1333,-175.2,27.19,74,20,6.69,TO,1694561856
341,mo i rana,66.3128,14.1428,9.07,93,100,2.06,NO,1694561857
342,empalme,27.9667,-110.8167,40.19,49,20,6.69,MX,1694561828
343,pathein,16.7833,94.7333,24.48,97,100,2.41,MM,1694561858
344,mayya,61.7333,130.2811,2.62,69,100,1.88,RU,1694561858
345,presicce,39.8991,18.2617,22.92,88,43,2.57,IT,1694561858
346,tadine,-21.55,167.8833,22.37,66,61,7.66,NC,1694561859
347,gobabis,-22.45,18.9667,9.35,16,0,4.92,NA,1694561860
348,xingcheng,40.6167,120.7167,20.53,51,0,1.2,CN,1694561860
349,wuchang,44.9143,127.15,14.61,74,5,1.86,CN,1694561860
350,new norfolk,-42.7826,147.0587,14.28,52,100,1.86,AU,1694561861
351,ta`u,-14.2336,-169.5144,26.9,80,38,7.01,AS,1694561861
352,fortuna,40.5982,-124.1573,22.42,53,0,7.2,US,1694561862
353,nova sintra,14.8667,-24.7167,24.98,80,23,3.98,CV,1694561862
354,puerto baquerizo moreno,-0.9,-89.6,23.4,76,91,4.12,EC,1694561863
355,tindouf,27.6711,-8.1474,26.25,41,20,6.17,DZ,1694561863
356,verin,41.9415,-7.4381,17.53,85,29,1.66,ES,1694561864
357,antsiranana,-12.2787,49.2917,22.71,70,49,5.63,MG,1694561864
358,freetown,8.484,-13.2299,27.84,83,75,5.14,SL,1694561865
359,muroto-misakicho,33.2833,134.15,26.96,76,80,3.7,JP,1694561865
360,laojunmiao,39.8333,97.7333,17.13,23,25,2.19,CN,1694561865
361,taiyuan,37.8694,112.5603,14.92,88,4,1.0,CN,1694561866
362,luanda,-8.8368,13.2343,22.0,83,20,3.09,AO,1694561840
363,naliya,23.2667,68.8333,26.14,81,71,5.45,IN,1694561867
364,nelson bay,-32.7167,152.15,18.33,75,2,2.24,AU,1694561867
365,berdigestyakh,62.0989,126.6992,6.31,60,56,1.97,RU,1694561868
366,greymouth,-42.4667,171.2,11.36,63,87,7.59,NZ,1694561868
367,hammerfest,70.6634,23.6821,7.25,87,100,1.54,NO,1694561868
368,ferozepore,30.9167,74.6,27.25,69,0,2.82,IN,1694561638
369,mokhotlong,-29.2894,29.0675,-0.23,83,1,1.86,LS,1694561869
370,shuangjiang,26.1547,109.7138,18.79,98,100,1.81,CN,1694561870
371,crane,31.3974,-102.3501,23.46,62,99,6.87,US,1694561870
372,north battleford,52.7834,-108.2847,29.05,26,20,4.63,CA,1694561871
373,manistee,44.2445,-86.3242,15.59,83,75,2.06,US,1694561872
374,oum hadjer,13.2954,19.6966,25.69,71,100,4.96,TD,1694561592
375,uvalde,29.3669,-99.767,33.4,40,75,5.66,US,1694561872
376,cabo san lucas,22.8909,-109.9124,34.78,74,20,4.63,MX,1694561382
377,al kharijah,25.4514,30.5464,27.45,45,0,3.25,EG,1694561873
378,saint-pierre,-21.3393,55.4781,22.82,64,100,1.54,RE,1694561874
379,naama,33.2667,-0.3167,22.63,44,100,3.28,DZ,1694561874
380,shitanjing,39.2342,106.3439,19.05,43,23,2.72,CN,1694561875
381,walvis bay,-22.9575,14.5053,13.53,50,0,1.54,NA,1694561875
382,eldorado,-23.7869,-54.2836,24.12,52,29,2.64,BR,1694561876
383,daru,-9.0763,143.2092,27.67,63,100,5.78,PG,1694561876
384,nouadhibou,20.931,-17.0347,23.99,73,8,5.14,MR,1694561877
385,malpica,43.3228,-8.8105,19.1,80,20,3.84,ES,1694561877
386,pendleton,45.6721,-118.7886,28.74,29,0,5.66,US,1694561878
387,awsim,30.123,31.1357,27.44,71,0,3.92,EG,1694561878
388,armacao de buzios,-22.7469,-41.8817,23.03,86,0,10.05,BR,1694561634
389,fisterra,42.9049,-9.2629,18.9,90,2,7.89,ES,1694561879
390,newnham,-41.3833,147.1333,12.95,87,99,2.57,AU,1694561879
391,trairi,-3.2778,-39.2689,25.98,81,3,5.79,BR,1694561880
392,ar ruways,24.1103,52.7306,31.57,64,8,1.8,AE,1694561880
393,guaruja,-23.9931,-46.2564,23.0,75,0,0.1,BR,1694561722
394,tottori,35.5,134.2333,26.04,78,75,3.6,JP,1694561882
395,karratha,-20.7377,116.8463,25.74,45,63,2.4,AU,1694561882
396,saldanha,-33.0117,17.9442,6.03,71,6,7.01,ZA,1694561883
397,catriel,-37.8791,-67.7956,13.21,28,0,2.46,AR,1694561883
398,zouerate,22.7187,-12.4521,31.16,26,99,4.48,MR,1694561884
399,novyy urengoy,66.0833,76.6333,6.75,69,97,3.14,RU,1694561884
400,lebyazh'ye,55.2689,66.4947,8.05,85,45,3.51,RU,1694561884
401,bethanie,-26.4833,17.15,10.51,17,0,3.67,NA,1694561885
402,suzhou,31.3114,120.6181,22.62,93,100,2.77,CN,1694561886
403,singkil,-7.9855,111.4161,25.03,66,2,2.03,ID,1694561886
404,natal,-5.795,-35.2094,25.12,94,75,3.6,BR,1694561762
405,gizo,-8.103,156.8419,27.26,77,100,5.39,SB,1694561887
406,arno,60.1167,18.6333,15.44,95,99,3.39,SE,1694561888
407,ed damer,17.5928,33.9592,23.95,78,100,7.95,SD,1694561888
408,lively,46.4334,-81.1498,12.51,91,99,3.41,CA,1694561889
409,ilebo,-4.3167,20.5833,24.7,67,24,0.88,CD,1694561889
410,shevchenko,48.5,35.0,17.17,46,90,2.07,UA,1694561890
411,tharangambadi,11.0319,79.8528,25.49,85,100,4.68,IN,1694561890
412,nchelenge,-9.3451,28.734,24.16,65,69,0.8,ZM,1694561891
413,guarapari,-20.6667,-40.4975,22.16,88,0,4.85,BR,1694561789
414,dingwall,57.5953,-4.4272,8.84,92,66,0.38,GB,1694561891
415,vila franca do campo,37.7167,-25.4333,21.23,99,100,1.98,PT,1694561892
416,escarcega,18.6089,-90.7454,27.29,77,96,2.15,MX,1694561892
417,tshabong,-26.05,22.45,9.97,15,0,4.31,BW,1694561893
418,al muwayh,22.4333,41.7583,29.69,25,100,3.91,SA,1694561893
419,independencia,-5.3964,-40.3086,27.91,39,11,3.02,BR,1694561894
420,adre,13.4667,22.2,24.05,80,99,1.52,TD,1694561894
421,balkashino,52.5167,68.7667,8.0,94,99,4.79,KZ,1694561895
422,lagunas,-5.2269,-75.6753,28.51,58,47,1.66,PE,1694561895
423,flying fish cove,-10.4217,105.6791,23.82,88,75,5.14,CX,1694561896
424,shubarshi,48.5872,57.1869,12.79,77,64,1.48,KZ,1694561896
425,yamba,-5.9,22.3,26.06,55,68,1.25,CD,1694561896
426,urangan,-25.3,152.9,20.61,53,28,4.68,AU,1694561897
427,hotan,37.0997,79.9269,20.86,19,0,4.54,CN,1694561897
428,camacupa,-12.0167,17.4833,18.11,23,0,2.28,AO,1694561898
429,aginskoye,51.1,114.53,9.52,48,96,4.93,RU,1694561898
430,lerwick,60.1545,-1.1494,8.0,68,81,4.17,GB,1694561899
431,lindesberg,59.592,15.2304,13.84,90,90,1.45,SE,1694561899
432,waingapu,-9.6567,120.2641,24.99,82,9,5.29,ID,1694561900
433,chinde,26.8418,88.0763,19.72,92,77,2.01,NP,1694561900
434,pleszew,51.8964,17.7855,20.51,59,53,1.7,PL,1694561901
435,kingston,17.997,-76.7936,31.53,70,20,5.14,JM,1694561654
436,el-tor,28.2364,33.6254,29.08,61,0,0.0,EG,1694561897
437,remire-montjoly,4.9167,-52.2667,28.02,78,0,3.09,GF,1694561610
438,kurkino,53.4257,38.6582,11.62,64,87,2.28,RU,1694561902
439,jalai nur,49.45,117.7,12.29,44,99,3.04,CN,1694561903
440,kulhudhuffushi,6.6221,73.07,27.97,74,100,4.36,MV,1694561903
441,ostrow mazowiecka,52.8024,21.8951,18.38,60,43,1.82,PL,1694561903
442,el dovio,4.5079,-76.2362,18.38,98,88,2.56,CO,1694561904
443,tieli,46.95,128.05,12.56,79,19,3.02,CN,1694561905
444,talakan,50.3167,130.3667,10.67,84,35,3.2,RU,1694561906
445,dryden,49.7833,-92.7503,12.16,50,0,1.03,CA,1694561690
446,ciudad lazaro cardenas,17.9583,-102.2,29.46,76,58,3.39,MX,1694561906
447,kruisfontein,-34.0033,24.7314,7.74,87,85,2.78,ZA,1694561907
448,sovetskaya gavan',48.9723,140.2878,18.39,42,0,4.64,RU,1694561907
449,kedainiai,55.2883,23.9747,17.26,74,31,2.1,LT,1694561908
450,bonthe,7.5264,-12.505,25.15,90,56,2.57,SL,1694561908
451,puerto armuelles,8.2833,-82.8667,28.99,72,100,0.45,PA,1694561909
452,nerja,36.7585,-3.8873,25.1,73,0,0.45,ES,1694561909
453,conduaga,8.862,117.4893,28.11,74,100,4.47,PH,1694561909
454,nyurba,63.2842,118.3319,5.02,89,99,3.36,RU,1694561910
455,bogande,12.9714,-0.1436,25.63,73,100,0.36,BF,1694561910
456,labytnangi,66.6572,66.4183,9.61,90,45,3.4,RU,1694561911
457,nishinoomote,30.7333,131.0,27.31,100,75,4.12,JP,1694561911
458,sur,22.5667,59.5289,28.49,66,18,3.06,OM,1694561912
459,oyem,1.5995,11.5793,19.87,99,81,1.3,GA,1694561912
460,chaman,30.9236,66.4512,21.37,12,0,1.05,PK,1694561913
461,puerto colombia,10.9878,-74.9547,30.05,83,32,6.98,CO,1694561809
462,mistelbach,48.57,16.5767,22.72,58,91,0.87,AT,1694561914
463,extrema,-22.8547,-46.3183,19.37,41,0,2.06,BR,1694561914
464,sao vicente,-23.9631,-46.3919,30.71,63,0,0.75,BR,1694561915
465,kiunga,-6.1219,141.2906,25.14,77,94,2.58,PG,1694561915
466,seminole,28.7086,-81.2081,31.34,81,0,3.6,US,1694561915
467,san pedro,14.35,121.0167,27.92,87,40,1.54,PH,1694561843
468,hami,42.8,93.45,24.27,29,100,3.7,CN,1694561916
469,camapua,-19.5314,-54.0439,27.41,34,71,0.54,BR,1694561917
470,haiku-pauwela,20.9219,-156.3051,28.47,59,20,10.8,US,1694561917
471,amnat charoen,15.9167,104.75,22.96,98,100,4.78,TH,1694561917
472,lospalos,-8.5186,127.0025,24.41,71,18,4.73,TL,1694561918
473,pikeville,37.4793,-82.5188,22.4,97,100,0.0,US,1694561695
474,maintirano,-18.0667,44.0167,23.83,82,47,5.41,MG,1694561919
475,sungai raya,0.7,108.9,26.85,80,100,3.78,ID,1694561919
476,veraval,20.9,70.3667,26.47,91,63,5.26,IN,1694561920
477,lukolela,-1.0605,17.1821,23.46,83,60,1.64,CD,1694561920
478,kourou,5.1552,-52.6478,28.03,80,62,5.68,GF,1694561920
479,novosokol'niki,56.3463,30.1578,12.35,85,33,2.58,RU,1694561921
480,castillos,-34.1667,-53.8333,8.19,86,100,3.82,UY,1694561921
481,budva,42.2864,18.84,20.14,94,0,0.51,ME,1694561922
482,harper,4.375,-7.7169,23.97,93,62,1.95,LR,1694561922
483,conceicao da barra,-18.5933,-39.7322,23.03,76,2,2.96,BR,1694561923
484,garrucha,37.1874,-1.8349,24.53,72,26,1.28,ES,1694561923
485,guozhen,34.3659,107.359,20.27,71,1,1.0,CN,1694561924
486,pak phanang,8.3511,100.202,27.01,82,100,1.89,TH,1694561924
487,tongouson,5.0214,120.1328,27.1,81,96,5.4,PH,1694561925
488,nema,57.5067,50.5011,11.11,75,100,1.98,RU,1694561925
489,villa francisca,18.4667,-69.9,29.03,79,75,4.12,DO,1694561925
490,azul,-36.777,-59.8585,9.1,50,82,1.31,AR,1694561926
491,igaracu do tiete,-22.5092,-48.5578,23.58,30,0,0.83,BR,1694561926
492,uelzen,52.9667,10.5667,19.71,96,100,1.9,DE,1694561927
493,uniao da vitoria,-26.23,-51.0864,17.96,82,1,0.43,BR,1694561927
494,dhuusamarreeb,5.535,46.3861,24.69,71,88,7.5,SO,1694561928
495,tihuatlan,20.7167,-97.5333,33.29,55,0,5.14,MX,1694561928
496,puerto la cruz,10.2167,-64.6167,28.34,78,91,3.65,VE,1694561929
497,meadow lakes,61.6247,-149.6011,12.53,78,100,2.06,US,1694561929
498,mhamid,29.82,-5.72,29.13,18,90,2.4,MA,1694561929
499,imbituba,-28.24,-48.6703,18.1,96,13,1.53,BR,1694561930
500,fort mcmurray,56.7268,-111.381,23.77,46,0,1.03,CA,1694561711
501,montmagny,48.9734,2.3469,18.36,97,75,1.54,FR,1694561931
502,kuragino,53.8975,92.6725,10.03,92,91,0.99,RU,1694561735
503,marsabit,2.3284,37.9899,19.38,72,46,9.17,KE,1694561932
504,santa cruz,-17.8,-63.1667,30.03,54,20,6.17,BO,1694561743
505,pamandzi,-12.7967,45.2794,23.88,83,0,1.54,YT,1694561933
506,novyy chirkey,43.162,47.0559,16.28,64,20,1.78,RU,1694561933
507,camalu,30.85,-116.0667,30.36,71,82,6.31,MX,1694561934
508,kilju,40.9642,129.3278,18.39,85,100,1.98,KP,1694561934
509,malanville,11.8685,3.3899,23.72,95,97,8.9,BJ,1694561935
510,shats'k,51.5021,23.9381,17.71,68,86,2.56,UA,1694561935
511,uvira,-3.4067,29.1458,24.37,83,100,0.56,CD,1694561936
512,suva,-18.1416,178.4415,27.71,69,75,4.63,FJ,1694561936
513,acarau,-2.8856,-40.12,25.91,83,5,7.42,BR,1694561937
514,martins ferry,40.0959,-80.7245,20.03,95,100,0.98,US,1694561937
515,kalabo,-14.97,22.6814,20.36,20,0,3.98,ZM,1694561938
516,rikaze,29.25,88.8833,8.61,41,0,1.55,CN,1694561938
517,turaif,31.6725,38.6637,24.14,33,0,5.14,SA,1694561938
518,byakabanda,-0.7425,31.4064,18.57,81,15,0.58,UG,1694561939
519,las khorey,11.1595,48.1967,33.17,56,63,4.48,SO,1694561940
520,isahaya,32.8411,130.0431,26.63,83,40,1.03,JP,1694561940
521,igoumenitsa,39.5039,20.2656,21.48,53,0,1.55,GR,1694561940
522,vanimo,-2.6741,141.3028,28.65,74,47,3.59,PG,1694561941
523,palu,-0.8917,119.8707,25.15,85,100,1.31,ID,1694561941
524,panaba,21.2833,-88.2667,28.22,81,14,4.75,MX,1694561942
525,becerril,9.7041,-73.2793,25.37,90,78,2.43,CO,1694561942
526,mar del plata,-38.0023,-57.5575,11.01,70,0,3.09,AR,1694561703
527,belyy yar,53.6039,91.3903,6.94,93,0,1.0,RU,1694561943
528,pali,25.7667,73.3333,26.69,65,97,5.75,IN,1694561944
529,robbah,33.2797,6.9098,30.8,30,92,4.94,DZ,1694561944
530,san sebastian de la gomera,28.0916,-17.1133,25.2,64,0,2.57,ES,1694561944
531,phillip island,-38.4835,145.231,18.33,77,73,3.81,AU,1694561945
532,gournay-en-bray,49.4828,1.7247,17.63,96,79,2.36,FR,1694561946
533,bubaque,11.2833,-15.8333,27.58,81,32,4.51,GW,1694561946
534,q'vareli,41.9549,45.8172,14.14,88,92,1.01,GE,1694561947
535,arkhara,49.4212,130.0842,11.26,80,18,3.33,RU,1694561947
536,mumford,5.2618,-0.759,23.49,96,100,2.19,GH,1694561948
537,maysville,38.6412,-83.7444,21.88,73,0,0.0,US,1694561948
538,ulaangom,49.9811,92.0667,12.11,78,87,2.28,MN,1694561949
539,ciudad madero,22.2667,-97.8333,32.11,62,0,6.66,MX,1694561949
540,isabela,6.7085,121.9711,24.03,73,100,4.04,PH,1694561950
541,hohhot,40.8106,111.6522,12.16,76,20,3.0,CN,1694561950
542,whitby,54.4877,-0.615,13.54,80,49,1.34,GB,1694561766
543,olyokminsk,60.3736,120.4264,6.91,87,100,2.2,RU,1694561951
544,valparaiso,-33.0393,-71.6273,12.8,76,0,5.14,CL,1694561952
545,bocanda,7.0626,-4.4995,23.09,99,96,3.06,CI,1694561952
546,cestos city,5.46,-9.5828,24.55,91,59,2.56,LR,1694561952
547,porto novo,6.4965,2.6036,23.9,90,100,2.13,BJ,1694561953
548,berriane,32.8265,3.7669,31.45,40,90,4.55,DZ,1694561953
549,guadalupe y calvo,26.1,-106.9667,16.88,84,91,1.18,MX,1694561954
550,salym,60.0625,71.4789,9.11,92,26,1.56,RU,1694561954
551,knysna,-34.0363,23.0471,10.05,57,37,2.51,ZA,1694561955
552,taroa,8.7058,171.2275,28.64,72,71,5.88,MH,1694561955
553,khabarovsk,48.4808,135.0928,14.86,72,0,5.81,RU,1694561955
554,kirensk,57.7853,108.1119,7.42,89,100,2.1,RU,1694561956
555,bogandinskiy,56.8937,65.8938,10.52,95,46,2.54,RU,1694561956
556,neiafu,-18.65,-173.9833,26.38,89,40,4.63,TO,1694561957
557,meulaboh,4.1363,96.1285,25.5,90,100,1.63,ID,1694561957
558,laibin,23.7,109.2667,25.5,91,100,2.05,CN,1694561958
559,mawlamyinegyunn,16.3833,95.2667,24.72,95,100,4.16,MM,1694561958
560,rio grande,-32.035,-52.0986,10.06,81,100,7.54,BR,1694561959
561,tougan,13.0667,-3.0667,25.48,68,100,1.58,BF,1694561959
562,mizdah,31.4451,12.9801,21.17,63,0,3.84,LY,1694561960
563,uruzgan,32.8333,66.0,20.83,11,0,3.19,AF,1694561960
